City_ID,City,Country,Date,Lat,Lng,Max Temp,Humidity,Cloudiness,Wind Speed
0,Abu Kamal,SY,2022-05-23 16:37:56,34.4506,40.9171,81.82,25,1,17.29
1,Rikitea,PF,2022-05-23 16:37:56,-23.1203,-134.9692,75.85,74,24,13.87
2,Nikolskoye,RU,2022-05-23 16:37:57,59.7035,30.7861,58.89,61,29,4.85
3,Cape Town,ZA,2022-05-23 16:35:02,-33.9258,18.4232,62.28,82,0,9.22
4,New Norfolk,AU,2022-05-23 16:37:57,-42.7826,147.0587,44.71,87,5,2.06
5,Mar Del Plata,AR,2022-05-23 16:37:57,-38.0023,-57.5575,60.82,73,0,5.75
6,Georgetown,MY,2022-05-23 16:37:58,5.4112,100.3354,84.13,93,20,0.0
7,Bluff,NZ,2022-05-23 16:37:58,-46.6,168.3333,52.81,78,88,25.88
8,Vostok,RU,2022-05-23 16:37:58,46.4856,135.8833,46.83,89,92,5.82
9,Ushuaia,AR,2022-05-23 16:35:58,-54.8,-68.3,37.02,75,75,2.3
10,Aqtobe,KZ,2022-05-23 16:37:59,50.2797,57.2072,60.89,63,0,4.47
11,Broome,US,2022-05-23 16:37:59,42.2506,-75.833,64.71,57,75,11.5
12,Carnarvon,AU,2022-05-23 16:38:00,-24.8667,113.6333,71.51,60,31,10.89
13,Atuona,PF,2022-05-23 16:35:01,-9.8,-139.0333,78.84,75,16,19.93
14,Juegang,CN,2022-05-23 16:38:00,32.3174,121.1855,68.95,90,5,10.38
15,Sioux Lookout,CA,2022-05-23 16:38:00,50.1001,-91.917,57.27,38,20,9.22
16,Tsabong,BW,2022-05-23 16:38:01,-26.0217,22.401,62.94,50,3,5.55
17,Seeboden,AT,2022-05-23 16:38:01,46.8219,13.495,74.98,98,100,1.88
18,Jamestown,US,2022-05-23 16:35:58,42.097,-79.2353,62.02,48,0,10.36
19,Lakhdenpokhya,RU,2022-05-23 16:38:01,61.5198,30.1992,54.66,54,22,9.06
20,Port Alfred,ZA,2022-05-23 16:38:02,-33.5906,26.891,60.19,81,11,1.81
21,Acarau,BR,2022-05-23 16:34:22,-2.8856,-40.12,81.34,76,93,4.43
22,Clyde River,CA,2022-05-23 16:38:03,70.4692,-68.5914,17.83,73,0,19.57
23,Olot,ES,2022-05-23 16:37:08,42.181,2.4901,81.75,38,95,1.99
24,Hobart,AU,2022-05-23 16:38:03,-42.8794,147.3294,45.05,90,75,8.05
25,Irbil,IQ,2022-05-23 16:38:04,36.1926,44.0106,76.82,33,100,11.5
26,Lebu,CL,2022-05-23 16:38:04,-37.6167,-73.65,50.92,71,100,0.98
27,Sao Filipe,CV,2022-05-23 16:38:04,14.8961,-24.4956,72.27,73,4,11.01
28,Agadez,NE,2022-05-23 16:38:05,19.75,10.25,97.95,7,76,6.96
29,Mataura,NZ,2022-05-23 16:38:05,-46.1927,168.8643,52.48,82,97,8.75
30,Qaanaaq,GL,2022-05-23 16:38:05,77.484,-69.3632,34.77,75,91,5.55
31,Torbay,CA,2022-05-23 16:38:06,47.6666,-52.7314,74.17,21,40,20.71
32,Alice Springs,AU,2022-05-23 16:38:06,-23.7,133.8833,51.35,66,67,0.0
33,Chokurdakh,RU,2022-05-23 16:38:06,70.6333,147.9167,31.84,95,100,1.5
34,Necochea,AR,2022-05-23 16:38:07,-38.5473,-58.7368,58.69,44,100,8.7
35,Iranshahr,IR,2022-05-23 16:38:07,27.2025,60.6848,97.14,7,0,9.22
36,Crotone,IT,2022-05-23 16:38:07,39.0851,17.1178,85.19,50,0,18.41
37,Ancud,CL,2022-05-23 16:38:08,-41.8697,-73.8203,48.97,79,93,17.81
38,Cairns,AU,2022-05-23 16:38:08,-16.9167,145.7667,73.35,91,75,8.05
39,Iguape,BR,2022-05-23 16:38:09,-24.7081,-47.5553,71.6,65,72,5.32
40,Tuktoyaktuk,CA,2022-05-23 16:38:09,69.4541,-133.0374,21.2,79,100,9.22
41,Olkhovka,RU,2022-05-23 16:38:09,53.2115,60.6069,51.82,91,100,11.05
42,Alexandria,EG,2022-05-23 16:38:10,31.2156,29.9553,73.36,64,40,12.66
43,Busselton,AU,2022-05-23 16:38:10,-33.65,115.3333,62.56,85,72,31.29
44,Albany,US,2022-05-23 16:36:33,42.6001,-73.9662,64.45,53,98,1.01
45,Katsuura,JP,2022-05-23 16:38:11,35.1333,140.3,61.7,79,87,4.12
46,Vaini,TO,2022-05-23 16:39:11,-21.2,-175.2,75.36,100,20,4.61
47,Norman Wells,CA,2022-05-23 16:39:11,65.282,-126.8329,39.24,81,75,4.61
48,Hervey Bay,AU,2022-05-23 16:39:12,-25.2986,152.8535,65.01,94,100,4.0
49,Sao Joao Da Barra,BR,2022-05-23 16:39:12,-21.6403,-41.0511,75.29,64,29,11.43
50,Kapaa,US,2022-05-23 16:39:13,22.0752,-159.319,74.12,85,100,14.97
51,Cidreira,BR,2022-05-23 16:39:13,-30.1811,-50.2056,67.51,58,0,4.34
52,Punta Arenas,CL,2022-05-23 16:37:05,-53.15,-70.9167,35.71,75,75,21.85
53,Pemberton,CA,2022-05-23 16:39:13,50.3164,-122.8027,55.09,68,94,4.25
54,Ambilobe,MG,2022-05-23 16:39:14,-13.2,49.05,74.8,75,84,3.51
55,Lasa,IT,2022-05-23 16:39:14,46.6166,10.7002,76.08,67,91,6.93
56,Kysyl-Syr,RU,2022-05-23 16:39:15,63.8986,122.7617,50.29,84,100,7.11
57,Boyuibe,BO,2022-05-23 16:39:15,-20.4167,-63.2833,81.91,38,0,7.02
58,Komsomolskiy,UZ,2022-05-23 16:39:15,40.4272,71.7189,61.52,55,69,4.61
59,Krasnoselkup,RU,2022-05-23 16:39:16,65.7,82.4667,48.47,66,96,11.9
60,Lagoa,PT,2022-05-23 16:39:16,39.05,-27.9833,61.54,86,100,16.51
61,Asyut,EG,2022-05-23 16:39:16,27.181,31.1837,87.98,15,0,9.48
62,Baykit,RU,2022-05-23 16:39:17,61.67,96.37,56.1,63,15,3.22
63,Esperance,AU,2022-05-23 16:39:17,-33.8667,121.9,61.0,68,59,22.95
64,Miri,MY,2022-05-23 16:39:18,4.4148,114.0089,80.74,89,20,4.61
65,Trelew,AR,2022-05-23 16:39:18,-43.249,-65.3051,54.5,31,26,19.73
66,Bellevue,US,2022-05-23 16:35:24,47.6104,-122.2007,61.18,75,100,6.91
67,Itarema,BR,2022-05-23 16:39:18,-2.9248,-39.9167,82.9,74,84,6.96
68,Butaritari,KI,2022-05-23 16:39:19,3.0707,172.7902,81.18,81,100,13.94
69,Khorixas,NA,2022-05-23 16:39:19,-20.3667,14.9667,71.01,17,1,10.96
70,Grand Gaube,MU,2022-05-23 16:39:19,-20.0064,57.6608,75.6,73,62,4.0
71,Neuruppin,DE,2022-05-23 16:39:20,52.9282,12.8031,73.09,51,93,11.5
72,Shimoda,JP,2022-05-23 16:39:20,34.6667,138.95,64.09,83,100,5.1
73,Namibe,AO,2022-05-23 16:39:20,-15.1961,12.1522,71.44,70,0,8.32
74,Guerrero Negro,MX,2022-05-23 16:39:14,27.9769,-114.0611,65.64,61,25,13.31
75,San Joaquin,US,2022-05-23 16:39:21,37.9333,-121.3011,79.54,31,0,10.36
76,Dikson,RU,2022-05-23 16:39:21,73.5069,80.5464,19.11,87,9,8.03
77,Lavrentiya,RU,2022-05-23 16:39:21,65.5833,-171.0,36.39,65,37,1.25
78,Port Lincoln,AU,2022-05-23 16:39:22,-34.7333,135.8667,62.42,67,86,13.29
79,Cabra,ES,2022-05-23 16:39:22,37.4725,-4.4421,85.66,34,13,1.99
80,Ponta Do Sol,PT,2022-05-23 16:39:22,32.6667,-17.1,73.13,69,12,2.15
81,Castro,BR,2022-05-23 16:39:23,-24.7911,-50.0119,66.81,42,99,4.68
82,Santa Maria,BR,2022-05-23 16:39:23,-29.6842,-53.8069,61.9,77,0,3.44
83,Upata,VE,2022-05-23 16:39:23,8.0086,-62.3989,80.19,70,100,8.57
84,Severo-Kurilsk,RU,2022-05-23 16:39:24,50.6789,156.125,40.71,98,100,14.83
85,Woodstock,CA,2022-05-23 16:38:51,43.1334,-80.7497,59.43,54,100,7.0
86,Vestmanna,FO,2022-05-23 16:39:24,62.1564,-7.1664,47.32,87,100,6.91
87,Hermanus,ZA,2022-05-23 16:39:25,-34.4187,19.2345,59.81,78,100,12.19
88,Hithadhoo,MV,2022-05-23 16:39:25,-0.6,73.0833,83.95,74,16,12.33
89,Ilulissat,GL,2022-05-23 16:39:25,69.2167,-51.1,32.02,93,100,19.57
90,Pacific Grove,US,2022-05-23 16:39:26,36.6177,-121.9166,66.2,75,0,8.99
91,Kaitangata,NZ,2022-05-23 16:39:26,-46.2817,169.8464,51.87,76,49,15.57
92,Vila Franca Do Campo,PT,2022-05-23 16:40:27,37.7167,-25.4333,68.2,84,99,6.13
93,Hengshan,CN,2022-05-23 16:40:27,45.2,130.9167,57.04,81,100,5.21
94,Vrnjacka Banja,RS,2022-05-23 16:40:27,43.6167,20.9,72.63,71,93,2.66
95,Provideniya,RU,2022-05-23 16:40:28,64.3833,-173.3,47.05,52,100,2.86
96,Cherskiy,RU,2022-05-23 16:40:28,68.75,161.3,50.31,52,96,15.08
97,Constitucion,CL,2022-05-23 16:40:28,-35.3333,-72.4167,54.64,91,100,1.59
98,Puerto Carreno,CO,2022-05-23 16:40:08,6.189,-67.4859,85.98,66,20,5.75
99,Mandiana,GN,2022-05-23 16:40:29,10.6333,-8.6833,92.41,33,87,10.29
100,Talnakh,RU,2022-05-23 16:40:29,69.4865,88.3972,33.21,94,100,2.21
101,Freeport,US,2022-05-23 16:40:30,40.6576,-73.5832,73.98,44,0,14.97
102,Evensk,RU,2022-05-23 16:40:30,61.95,159.2333,39.51,82,74,3.02
103,Bud,US,2022-05-23 16:40:30,39.447,-86.1758,62.89,53,100,13.71
104,Ferme-Neuve,CA,2022-05-23 16:40:31,46.7001,-75.4493,53.49,46,74,5.77
105,Lorengau,PG,2022-05-23 16:40:31,-2.0226,147.2712,82.96,72,99,11.79
106,Haines Junction,CA,2022-05-23 16:40:31,60.7522,-137.5108,44.55,61,100,2.3
107,Morondava,MG,2022-05-23 16:40:32,-20.2833,44.2833,77.85,74,0,11.88
108,Longyearbyen,SJ,2022-05-23 16:40:33,78.2186,15.6401,37.24,87,75,0.0
109,Sehithwa,BW,2022-05-23 16:40:33,-20.4667,22.7167,61.34,34,0,5.44
110,Adrar,MR,2022-05-23 16:40:34,20.5022,-10.0711,105.75,7,22,4.74
111,Bajil,YE,2022-05-23 16:40:34,15.0584,43.2851,88.29,56,2,7.34
112,Havre-Saint-Pierre,CA,2022-05-23 16:40:35,50.2334,-63.5986,53.96,43,0,12.66
113,Saskylakh,RU,2022-05-23 16:40:35,71.9167,114.0833,28.44,95,99,12.24
114,Udankudi,IN,2022-05-23 16:40:35,8.4333,78.0167,85.55,65,96,9.08
115,Staryy Nadym,RU,2022-05-23 16:40:36,65.6118,72.6842,45.48,60,67,3.6
116,Denizli,TR,2022-05-23 16:40:36,37.8402,29.0698,72.75,47,75,5.93
117,Arima,TT,2022-05-23 16:40:36,10.6333,-61.2833,88.5,74,20,8.99
118,La Asuncion,VE,2022-05-23 16:40:37,11.0333,-63.8628,80.8,73,79,16.55
119,Saint George,US,2022-05-23 16:36:17,37.1041,-113.5841,74.79,20,0,4.0
120,Dorchester,US,2022-05-23 16:40:37,33.1002,-80.3831,86.36,70,75,8.05
121,Sakakah,SA,2022-05-23 16:40:37,29.9697,40.2064,85.57,21,0,13.02
122,Kavaratti,IN,2022-05-23 16:40:38,10.5669,72.642,83.57,82,100,15.28
123,Ribeira Grande,PT,2022-05-23 16:40:38,38.5167,-28.7,64.8,94,40,13.8
124,Vao,NC,2022-05-23 16:40:39,-22.6667,167.4833,72.21,79,100,21.41
125,Puerto Ayora,EC,2022-05-23 16:40:39,-0.7393,-90.3518,80.56,95,63,3.0
126,Alugan,PH,2022-05-23 16:40:39,12.2188,125.4808,79.86,85,13,5.93
127,Inuvik,CA,2022-05-23 16:40:40,68.3499,-133.7218,20.41,76,100,4.61
128,Jiwani,PK,2022-05-23 16:40:40,25.05,61.7417,84.45,85,0,9.06
129,Talcahuano,CL,2022-05-23 16:40:40,-36.7167,-73.1167,51.48,87,100,6.91
130,Faanui,PF,2022-05-23 16:40:41,-16.4833,-151.75,81.07,72,10,14.7
131,Mehamn,NO,2022-05-23 16:40:41,71.0357,27.8492,44.55,70,0,11.5
132,Puerto Plata,DO,2022-05-23 16:40:41,19.7934,-70.6884,89.51,70,20,18.41
133,Balangiga,PH,2022-05-23 16:40:42,11.1097,125.3875,78.8,89,34,3.69
134,Hilo,US,2022-05-23 16:36:55,19.7297,-155.09,77.29,81,75,3.44
135,Bredasdorp,ZA,2022-05-23 16:40:42,-34.5322,20.0403,59.4,79,100,5.61
136,Findlay,US,2022-05-23 16:41:24,41.0442,-83.6499,60.98,63,75,12.66
137,Maragogi,BR,2022-05-23 16:40:10,-9.0122,-35.2225,80.13,78,25,14.65
138,Ca Mau,VN,2022-05-23 16:41:43,9.1769,105.15,78.76,86,100,2.8
139,Rocha,UY,2022-05-23 16:41:43,-34.4833,-54.3333,64.63,58,97,7.38
140,Upernavik,GL,2022-05-23 16:41:44,72.7868,-56.1549,30.6,94,100,4.79
141,Bilma,NE,2022-05-23 16:41:44,18.6853,12.9164,98.01,7,99,4.85
142,Monte Patria,CL,2022-05-23 16:41:44,-30.6919,-70.9467,74.5,26,100,4.65
143,Grindavik,IS,2022-05-23 16:41:45,63.8424,-22.4338,50.47,66,75,8.05
144,Waingapu,ID,2022-05-23 16:41:45,-9.6567,120.2641,77.09,85,8,5.64
145,San Jose,US,2022-05-23 16:40:43,37.3394,-121.895,72.91,53,20,4.61
146,Tateyama,JP,2022-05-23 16:41:45,34.9833,139.8667,63.32,76,98,4.36
147,Kabo,CF,2022-05-23 16:41:46,7.6994,18.629,76.28,81,100,12.1
148,Vila Velha,BR,2022-05-23 16:41:27,-20.3297,-40.2925,76.95,61,75,11.5
149,Arraial Do Cabo,BR,2022-05-23 16:41:46,-22.9661,-42.0278,76.96,57,40,17.27
150,Klaksvik,FO,2022-05-23 16:41:46,62.2266,-6.589,49.12,87,67,9.46
151,Khatanga,RU,2022-05-23 16:41:47,71.9667,102.5,26.22,87,35,10.65
152,Barrow,US,2022-05-23 16:41:47,71.2906,-156.7887,21.22,86,100,19.57
153,Calama,CL,2022-05-23 16:41:48,-22.4667,-68.9333,66.69,8,0,9.22
154,Iquitos,PE,2022-05-23 16:41:48,-3.7481,-73.2472,82.44,78,75,4.61
155,Dabakala,CI,2022-05-23 16:41:49,8.3667,-4.4333,85.96,54,90,5.26
156,Phalodi,IN,2022-05-23 16:41:49,27.1333,72.3667,90.5,8,0,4.56
157,Boende,CD,2022-05-23 16:41:49,-0.2167,20.8667,71.64,98,99,5.66
158,Rafsanjan,IR,2022-05-23 16:41:50,30.4067,55.9939,84.51,7,0,5.37
159,Cabo San Lucas,MX,2022-05-23 16:41:50,22.8909,-109.9124,84.61,55,0,6.91
160,Krasnovishersk,RU,2022-05-23 16:41:51,60.4078,57.082,36.91,87,98,2.48
161,Flin Flon,CA,2022-05-23 16:41:25,54.7682,-101.865,51.6,52,100,8.12
162,Caravelas,BR,2022-05-23 16:41:51,-17.7125,-39.2481,73.76,72,67,7.23
163,Bridgetown,BB,2022-05-23 16:41:51,13.1,-59.6167,88.29,58,20,17.27
164,La Pintada,CO,2022-05-23 16:41:52,5.7487,-75.6063,87.35,55,79,2.53
165,Qaqortoq,GL,2022-05-23 16:41:52,60.7167,-46.0333,37.81,66,97,8.32
166,Loukhi,RU,2022-05-23 16:41:52,66.0764,33.0381,44.49,44,94,6.64
167,Lugovoy,KZ,2022-05-23 16:41:53,42.9472,72.7644,51.57,76,93,2.24
168,Airai,TL,2022-05-23 16:41:53,-8.9266,125.4092,59.36,82,47,2.64
169,Visby,SE,2022-05-23 16:41:54,57.6409,18.296,60.06,44,0,4.61
170,Geraldton,AU,2022-05-23 16:41:54,-28.7667,114.6,66.61,63,100,19.57
171,Wagar,SD,2022-05-23 16:41:54,16.1525,36.2032,102.15,15,0,6.11
172,Kyabram,AU,2022-05-23 16:41:55,-36.3167,145.05,46.87,85,0,5.28
173,Aksarka,RU,2022-05-23 16:41:55,66.5606,67.7975,39.38,90,100,5.28
174,Santa Rosa,PH,2022-05-23 16:41:55,14.3122,121.1114,81.1,91,53,0.49
175,Gawler,AU,2022-05-23 16:41:56,-34.6,138.7333,62.24,68,19,8.86
176,Sitka,US,2022-05-23 16:41:56,57.0531,-135.33,46.29,87,100,13.8
177,Labrea,BR,2022-05-23 16:41:56,-7.2586,-64.7981,89.92,46,66,2.91
178,Saldanha,ZA,2022-05-23 16:41:57,-33.0117,17.9442,60.24,88,38,4.79
179,Labuhan,ID,2022-05-23 16:41:57,-6.8844,112.2051,80.2,83,100,9.46
180,Port Elizabeth,ZA,2022-05-23 16:41:57,-33.918,25.5701,63.1,88,0,8.05
181,Ostrovnoy,RU,2022-05-23 16:42:58,68.0531,39.5131,31.64,90,100,18.12
182,Victoria,HK,2022-05-23 16:40:35,22.2855,114.1577,78.19,93,100,10.0
183,Ler,SS,2022-05-23 16:42:58,8.3018,30.1418,88.68,37,40,4.45
184,Coahuayana,MX,2022-05-23 16:42:59,18.7333,-103.6833,88.54,51,29,7.2
185,Aklavik,CA,2022-05-23 16:42:59,68.2191,-135.0107,29.35,66,98,3.27
186,Anadyr,RU,2022-05-23 16:42:59,64.75,177.4833,37.9,81,0,6.71
187,Svobodnyy,RU,2022-05-23 16:43:00,51.4,128.1333,45.12,79,100,12.26
188,Beringovskiy,RU,2022-05-23 16:43:00,63.05,179.3167,38.05,81,100,2.98
189,Wanning,CN,2022-05-23 16:43:00,18.8003,110.3967,79.5,94,100,4.21
190,Prince Albert,CA,2022-05-23 16:41:25,53.2001,-105.7677,53.55,47,75,8.05
191,Fort Nelson,CA,2022-05-23 16:41:25,58.8053,-122.7002,47.79,66,75,3.44
192,Podosinovets,RU,2022-05-23 16:43:01,60.2776,47.0659,32.97,97,100,1.72
193,Kruisfontein,ZA,2022-05-23 16:43:02,-34.0033,24.7314,60.89,84,71,4.34
194,Port Hardy,CA,2022-05-23 16:42:16,50.6996,-127.4199,48.38,93,100,9.22
195,Jibuti,DJ,2022-05-23 16:42:30,11.5,42.5,93.36,20,24,6.73
196,East London,ZA,2022-05-23 16:43:02,-33.0153,27.9116,63.54,82,0,6.91
197,Parabel,RU,2022-05-23 16:43:03,58.6978,81.4825,53.89,56,87,8.14
198,Mahebourg,MU,2022-05-23 16:43:03,-20.4081,57.7,75.49,69,75,11.5
199,Liverpool,GB,2022-05-23 16:43:03,53.4106,-2.9779,59.9,73,40,13.8
200,Cockburn Town,TC,2022-05-23 16:42:05,21.4612,-71.1419,84.16,61,40,13.8
201,San Luis,AR,2022-05-23 16:41:04,-33.295,-66.3356,67.37,33,100,2.1
202,Kaihua,CN,2022-05-23 16:43:06,23.3687,104.28,60.75,98,100,3.24
203,Vallenar,CL,2022-05-23 16:43:06,-28.5708,-70.7581,79.79,17,45,4.65
204,Qandala,SO,2022-05-23 16:43:07,11.472,49.8728,88.54,53,85,4.32
205,Dillon,US,2022-05-23 16:43:07,34.4166,-79.3712,87.94,56,100,5.23
206,Kibungo,RW,2022-05-23 16:43:07,-2.1597,30.5427,68.92,90,98,2.21
207,Voi,KE,2022-05-23 16:43:09,-3.3945,38.563,73.78,62,95,9.89
208,Axim,GH,2022-05-23 16:43:09,4.8699,-2.2405,81.25,74,63,8.23
209,Muisne,EC,2022-05-23 16:43:10,0.6,-80.0333,78.85,84,100,11.77
210,Havoysund,NO,2022-05-23 16:43:10,70.9963,24.6622,50.23,71,41,12.93
211,Fairbanks,US,2022-05-23 16:43:10,64.8378,-147.7164,49.23,50,0,12.66
212,Tsumeb,NA,2022-05-23 16:43:11,-19.2333,17.7167,63.61,28,0,8.08
213,Broken Hill,AU,2022-05-23 16:43:11,-31.95,141.4333,55.0,72,0,5.01
214,Carmen,MX,2022-05-23 16:43:11,18.6333,-91.8333,87.33,56,22,12.59
215,Iralaya,HN,2022-05-23 16:43:12,15.0,-83.2333,83.55,70,77,13.09
216,Poway,US,2022-05-23 16:42:54,32.9628,-117.0359,68.5,78,100,5.75
217,Shubarkuduk,KZ,2022-05-23 16:41:19,49.1447,56.4872,64.99,43,99,14.36
218,Olafsvik,IS,2022-05-23 16:43:12,64.8945,-23.7142,45.05,74,70,4.47
219,Kutum,SD,2022-05-23 16:43:13,14.2,24.6667,86.9,12,4,10.87
220,Sassandra,CI,2022-05-23 16:43:13,4.95,-6.0833,80.1,79,74,9.1
221,Vardo,NO,2022-05-23 16:43:13,70.3705,31.1107,37.38,87,75,17.27
222,Bone,DE,2022-05-23 16:43:14,51.9669,12.1396,73.26,51,90,9.08
223,Kudahuvadhoo,MV,2022-05-23 16:43:14,2.6708,72.8944,84.04,75,75,13.06
224,Amapa,BR,2022-05-23 16:43:15,1.0,-52.0,75.87,95,54,3.27
225,Moshupa,BW,2022-05-23 16:43:15,-24.7782,25.4155,59.18,54,4,6.67
226,Arak,IR,2022-05-23 16:44:15,34.0917,49.6892,72.01,17,16,17.02
227,Koutsouras,GR,2022-05-23 16:44:16,35.0339,25.9469,71.11,74,3,4.14
228,Bambous Virieux,MU,2022-05-23 16:44:16,-20.3428,57.7575,75.45,69,75,11.5
229,Abhar,IR,2022-05-23 16:44:16,36.1468,49.218,68.47,29,58,27.65
230,Tessalit,ML,2022-05-23 16:44:17,20.1986,1.0114,98.92,15,1,14.76
231,Yulara,AU,2022-05-23 16:44:17,-25.2406,130.9889,64.76,42,100,7.09
232,Souris,CA,2022-05-23 16:44:18,49.6172,-100.2612,59.74,42,14,12.44
233,Margate,GB,2022-05-23 16:44:18,51.3813,1.3862,56.7,88,100,4.0
234,Mananjary,MG,2022-05-23 16:44:19,-21.2167,48.3333,70.92,82,7,5.79
235,Moranbah,AU,2022-05-23 16:44:19,-22.0016,148.0466,60.91,92,38,12.48
236,Meulaboh,ID,2022-05-23 16:44:19,4.1363,96.1285,78.48,86,99,2.84
237,Gazli,UZ,2022-05-23 16:44:20,40.1333,63.45,75.94,18,0,10.09
238,Pilot Butte,CA,2022-05-23 16:44:20,50.4668,-104.4178,61.66,31,20,6.91
239,Saint-Philippe,RE,2022-05-23 16:44:20,-21.3585,55.7679,72.99,84,39,11.54
240,Aksu,CN,2022-05-23 16:44:21,41.1231,80.2644,79.21,20,100,8.28
241,Bloomfield,US,2022-05-23 16:44:21,40.8068,-74.1854,75.16,42,0,13.8
242,Kyra,RU,2022-05-23 16:44:21,49.5776,111.9753,49.24,53,100,3.96
243,Yellowknife,CA,2022-05-23 16:40:25,62.456,-114.3525,36.12,69,75,4.61
244,Moreno Valley,US,2022-05-23 16:39:39,33.9375,-117.2306,85.95,72,20,4.61
245,Druzhnaya Gorka,RU,2022-05-23 16:44:22,59.2761,30.1425,53.55,63,61,4.54
246,Westport,US,2022-05-23 16:39:44,41.1415,-73.3579,73.74,47,0,10.36
247,Bethel,US,2022-05-23 16:42:58,41.3712,-73.414,72.48,53,0,9.22
248,Bengkulu,ID,2022-05-23 16:44:23,-3.8004,102.2655,77.95,85,95,4.43
249,Samagaltay,RU,2022-05-23 16:44:23,50.6022,95.0047,51.82,78,24,7.96
250,Avarua,CK,2022-05-23 16:44:23,-21.2078,-159.775,78.85,83,20,1.14
251,Tahoua,NE,2022-05-23 16:44:24,14.8888,5.2692,93.18,38,99,8.05
252,Yerbogachen,RU,2022-05-23 16:44:24,61.2767,108.0108,52.92,68,97,5.86
253,Hualmay,PE,2022-05-23 16:44:25,-11.0964,-77.6139,69.53,70,28,10.92
254,Hami,CN,2022-05-23 16:44:25,42.8,93.45,85.03,12,100,9.15
255,Tangara,BR,2022-05-23 16:44:25,-6.1994,-35.8017,80.02,78,90,11.16
256,Luan,CH,2022-05-23 16:44:26,46.3592,6.9759,66.83,72,85,13.0
257,Manyana,BW,2022-05-23 16:44:26,-23.4,21.7167,59.05,44,59,7.14
258,Novyy Urgal,RU,2022-05-23 16:44:26,51.0736,132.5642,48.06,98,100,1.1
259,Xanlar,AZ,2022-05-23 16:44:27,40.5869,46.3158,54.91,82,75,20.71
260,Gat,IL,2022-05-23 16:44:27,31.61,34.7642,73.78,44,0,4.56
261,Sobolevo,RU,2022-05-23 16:44:27,54.4299,31.8996,50.5,71,21,8.99
262,Asau,RO,2022-05-23 16:44:28,46.4333,26.4,60.28,86,93,1.28
263,Ulcinj,ME,2022-05-23 16:44:28,41.9294,19.2244,79.02,72,81,4.25
264,Bambanglipuro,ID,2022-05-23 16:44:28,-7.95,110.2833,78.1,82,99,5.95
265,Katobu,ID,2022-05-23 16:44:29,-4.9408,122.5276,75.94,92,97,5.55
266,Bardiyah,LY,2022-05-23 16:44:29,31.7561,25.0865,70.59,58,0,10.11
267,Toora-Khem,RU,2022-05-23 16:44:30,52.4675,96.11,50.92,92,40,3.83
268,Isangel,VU,2022-05-23 16:44:30,-19.55,169.2667,77.05,82,48,10.71
269,Roald,NO,2022-05-23 16:44:30,62.5833,6.1333,61.16,76,75,4.61
270,Luoyang,CN,2022-05-23 16:44:31,34.6836,112.4536,72.63,53,12,1.68
271,Rincon,US,2022-05-23 16:44:31,32.296,-81.2354,85.91,67,100,9.22
272,Pontalina,BR,2022-05-23 16:44:31,-17.525,-49.4472,85.53,22,3,4.07
273,Saint-Paul,RE,2022-05-23 16:44:32,-21.0096,55.2707,73.51,79,3,3.02
274,Sabzevar,IR,2022-05-23 16:45:33,36.2126,57.6819,78.08,13,0,4.61
275,Traverse City,US,2022-05-23 16:45:33,44.7631,-85.6206,58.73,36,20,9.22
276,Rio Gallegos,AR,2022-05-23 16:45:34,-51.6226,-69.2181,37.45,56,20,18.41
277,Los Llanos De Aridane,ES,2022-05-23 16:45:34,28.6585,-17.9182,69.12,77,75,16.11
278,Sambava,MG,2022-05-23 16:45:34,-14.2667,50.1667,74.25,78,16,12.66
279,Rundu,NA,2022-05-23 16:45:35,-17.9333,19.7667,60.69,33,0,4.81
280,Naples,IT,2022-05-23 16:43:16,40.8333,14.25,78.85,63,0,8.05
281,Tasiilaq,GL,2022-05-23 16:45:35,65.6145,-37.6368,35.76,99,100,10.65
282,Nyurba,RU,2022-05-23 16:45:35,63.2842,118.3319,55.44,61,100,9.89
283,Bubaque,GW,2022-05-23 16:45:36,11.2833,-15.8333,78.22,74,96,17.22
284,Palmer,US,2022-05-23 16:45:36,42.1584,-72.3287,71.58,46,75,18.41
285,Pavlodar,KZ,2022-05-23 16:45:36,52.3,76.95,55.2,38,0,8.95
286,Jaguey Grande,CU,2022-05-23 16:45:38,22.5269,-81.1286,94.32,37,90,9.1
287,Kamsack,CA,2022-05-23 16:45:38,51.5667,-101.9009,59.45,42,33,14.56
288,Muros,ES,2022-05-23 16:45:38,42.7762,-9.0603,66.69,58,17,14.23
289,Batagay-Alyta,RU,2022-05-23 16:45:39,67.8006,130.4114,29.55,86,67,3.36
290,Panaba,MX,2022-05-23 16:45:39,21.2833,-88.2667,96.35,34,50,11.5
291,Rabo De Peixe,PT,2022-05-23 16:45:39,37.8,-25.5833,67.28,89,75,12.66
292,Borgarnes,IS,2022-05-23 16:45:40,64.5383,-21.9206,54.81,58,95,1.99
293,Thompson,CA,2022-05-23 16:42:17,55.7435,-97.8558,50.16,57,75,16.11
294,Lethem,GY,2022-05-23 16:45:40,3.3803,-59.7968,83.77,66,81,6.06
295,Mount Isa,AU,2022-05-23 16:45:41,-20.7333,139.5,64.17,55,0,8.05
296,Shuangcheng,CN,2022-05-23 16:45:41,45.35,126.2833,69.48,54,45,9.8
297,Dzerzhinsk,RU,2022-05-23 16:45:41,56.2389,43.4631,39.02,93,75,6.71
298,Phan Thiet,VN,2022-05-23 16:45:42,10.9333,108.1,77.31,87,100,7.63
299,Port-Gentil,GA,2022-05-23 16:45:42,-0.7193,8.7815,80.56,69,20,11.5
300,Kloulklubed,PW,2022-05-23 16:45:42,7.0419,134.2556,75.7,77,77,12.68
301,Bintulu,MY,2022-05-23 16:45:43,3.1667,113.0333,79.21,94,20,2.3
302,Petropavlovsk-Kamchatskiy,RU,2022-05-23 16:45:43,53.0452,158.6483,39.79,100,75,2.24
303,Banamba,ML,2022-05-23 16:45:43,13.55,-7.45,79.92,61,82,17.85
304,Nouadhibou,MR,2022-05-23 16:45:44,20.931,-17.0347,71.58,73,7,23.02
305,Never,FR,2022-05-23 16:45:44,46.9896,3.159,62.35,84,92,10.09
306,Russell,US,2022-05-23 16:45:45,32.3502,-85.1999,78.4,73,75,12.66
307,San Cristobal,VE,2022-05-23 16:45:45,7.7669,-72.225,78.98,44,17,6.98
308,Pangody,RU,2022-05-23 16:45:45,65.85,74.4859,45.37,64,87,4.72
309,Wattegama,LK,2022-05-23 16:45:46,6.7989,81.4808,77.36,81,78,7.85
310,Pevek,RU,2022-05-23 16:45:46,69.7008,170.3133,36.46,82,84,11.45
311,Dasoguz,TM,2022-05-23 16:45:46,41.8363,59.9666,75.15,31,0,13.8
312,Dinard,FR,2022-05-23 16:45:48,48.6314,-2.0614,55.78,89,75,6.91
313,Ghatsila,IN,2022-05-23 16:45:48,22.6,86.4833,85.33,63,40,7.31
314,Sedalia,US,2022-05-23 16:41:23,38.7045,-93.2283,62.74,55,75,14.97
315,Bom Jesus,BR,2022-05-23 16:45:49,-9.0744,-44.3586,93.9,27,14,8.12
316,Kachug,RU,2022-05-23 16:45:49,53.9606,105.8817,46.78,62,56,3.78
317,Aizpute,LV,2022-05-23 16:45:49,56.7167,21.6,56.43,55,22,5.39
318,Kavieng,PG,2022-05-23 16:46:50,-2.5744,150.7967,82.27,73,95,14.9
319,Coquimbo,CL,2022-05-23 16:46:50,-29.9533,-71.3436,62.33,67,0,10.36
320,Hasaki,JP,2022-05-23 16:46:50,35.7333,140.8333,55.8,76,81,3.11
321,Abu Samrah,SY,2022-05-23 16:46:51,35.3029,37.1841,67.53,55,0,21.23
322,Bushehr,IR,2022-05-23 16:46:51,28.9684,50.8385,86.09,30,0,4.61
323,Samtredia,GE,2022-05-23 16:46:51,42.1537,42.3352,55.67,94,100,9.22
324,Caarapo,BR,2022-05-23 16:46:52,-22.6342,-54.8222,76.37,35,17,5.61
325,Khovu-Aksy,RU,2022-05-23 16:46:52,51.1333,93.6,51.67,82,16,4.41
326,Naze,JP,2022-05-23 16:46:52,28.3667,129.4833,63.52,88,100,13.62
327,Svetlaya,RU,2022-05-23 16:46:53,46.5389,138.3297,40.95,91,14,3.98
328,Challans,FR,2022-05-23 16:46:53,46.8436,-1.8749,61.72,68,82,17.49
329,Lompoc,US,2022-05-23 16:46:53,34.6391,-120.4579,69.93,78,0,8.01
330,Ada,US,2022-05-23 16:46:54,43.4166,-116.1262,60.49,41,0,5.01
331,Azovo,RU,2022-05-23 16:46:54,54.6997,73.0237,67.75,57,84,11.59
332,Berlevag,NO,2022-05-23 16:46:09,70.8578,29.0864,44.6,70,0,16.11
333,Saint Anthony,US,2022-05-23 16:45:20,45.0205,-93.218,63.91,35,20,9.22
334,Lata,PT,2022-05-23 16:46:55,40.1629,-8.3327,63.81,50,88,12.01
335,Goundi,TD,2022-05-23 16:46:55,9.3627,17.366,94.6,28,99,3.89
336,Savelugu,GH,2022-05-23 16:46:55,9.6244,-0.8253,83.91,59,100,7.99
337,Dunedin,NZ,2022-05-23 16:46:56,-45.8742,170.5036,53.8,56,11,4.0
338,Kahului,US,2022-05-23 16:45:41,20.8947,-156.47,75.85,74,20,6.91
339,Tuatapere,NZ,2022-05-23 16:46:57,-46.1333,167.6833,50.32,83,86,10.25
340,Cayenne,GF,2022-05-23 16:46:57,4.9333,-52.3333,84.09,7,75,4.61
341,Brownwood,US,2022-05-23 16:46:08,31.7093,-98.9912,73.4,72,100,12.66
342,Korla,CN,2022-05-23 16:46:58,41.7597,86.1469,78.8,19,91,11.92
343,Port Macquarie,AU,2022-05-23 16:46:58,-31.4333,152.9167,54.9,88,51,3.49
344,Dingle,PH,2022-05-23 16:46:58,10.9995,122.6711,76.6,88,78,1.68
345,Longyan,CN,2022-05-23 16:46:59,25.1072,117.0225,69.1,99,100,1.43
346,Oranjestad,AW,2022-05-23 16:46:59,12.524,-70.027,85.95,66,40,25.32
347,Hamilton,US,2022-05-23 16:46:59,39.1834,-84.5333,62.31,65,100,13.8
348,Codrington,AU,2022-05-23 16:47:00,-38.2667,141.9667,49.23,85,4,6.73
349,Souillac,MU,2022-05-23 16:47:00,-20.5167,57.5167,75.58,69,75,11.5
350,Fare,PF,2022-05-23 16:47:00,-16.7,-151.0167,80.64,73,0,14.38
351,Oparino,RU,2022-05-23 16:47:01,59.8518,48.2783,32.86,98,100,2.98
352,Kansanshi,ZM,2022-05-23 16:47:01,-12.0951,26.4273,61.54,53,5,2.46
353,Ojinaga,MX,2022-05-23 16:47:01,29.5667,-104.4167,76.15,57,75,12.66
354,Riyadh,SA,2022-05-23 16:45:45,24.6877,46.7219,100.54,8,0,12.39
355,Chuy,UY,2022-05-23 16:47:05,-33.6971,-53.4616,63.88,59,87,4.74
356,Puerto Ayacucho,VE,2022-05-23 16:47:05,5.6639,-67.6236,84.38,71,49,5.06
357,Athabasca,CA,2022-05-23 16:45:59,54.7169,-113.2854,59.41,46,98,4.38
358,Yumen,CN,2022-05-23 16:47:06,40.2833,97.2,75.16,15,100,28.41
359,Mon,IN,2022-05-23 16:47:06,26.75,95.1,68.95,98,81,3.02
360,Lindlar,DE,2022-05-23 16:47:06,51.0196,7.3776,67.8,63,84,11.56
361,Todos Santos,MX,2022-05-23 16:47:07,23.45,-110.2167,89.04,64,21,8.61
362,Loiza,PR,2022-05-23 16:47:07,18.4313,-65.8802,88.68,58,40,17.27
363,Verkhnevilyuysk,RU,2022-05-23 16:47:08,63.4453,120.3167,51.3,81,100,5.5
364,Dania Beach,US,2022-05-23 16:48:08,26.0523,-80.1439,89.02,69,40,17.27
365,Falmouth,GB,2022-05-23 16:47:19,50.1544,-5.0711,58.21,76,75,17.27
366,Yar-Sale,RU,2022-05-23 16:48:08,66.8333,70.8333,38.91,94,100,4.38
367,Hambantota,LK,2022-05-23 16:48:09,6.1241,81.1185,80.26,83,98,17.65
368,Bemidji,US,2022-05-23 16:48:09,47.4736,-94.8803,61.92,31,40,13.8
369,Maldonado,UY,2022-05-23 16:48:10,-34.6667,-54.9167,67.39,58,100,5.86
370,Launceston,AU,2022-05-23 16:48:10,-41.45,147.1667,43.81,92,3,0.0
371,Luderitz,NA,2022-05-23 16:48:11,-26.6481,15.1594,62.64,57,65,3.78
372,Hofn,IS,2022-05-23 16:48:11,64.2539,-15.2082,44.62,93,100,10.36
373,Kodiak,US,2022-05-23 16:45:53,57.79,-152.4072,45.91,87,100,16.11
374,Ashland,US,2022-05-23 16:45:19,40.8167,-82.2665,60.76,70,100,10.36
375,Ofunato,JP,2022-05-23 16:48:16,39.0717,141.7167,53.74,90,2,8.55
376,Kamaishi,JP,2022-05-23 16:48:16,39.2667,141.8833,53.82,89,2,7.61
377,Snezhnogorsk,RU,2022-05-23 16:48:17,69.1933,33.2531,47.98,57,6,11.81
378,Ifanadiana,MG,2022-05-23 16:48:17,-21.3,47.6333,65.59,98,61,1.32
379,Morada Nova,BR,2022-05-23 16:48:17,-5.1067,-38.3725,88.56,47,36,7.43
380,Salamiyah,SY,2022-05-23 16:48:18,35.0113,37.0532,66.09,52,0,20.67
381,Nova Olimpia,BR,2022-05-23 16:48:18,-14.7972,-57.2881,90.46,29,41,3.15
382,Znin,PL,2022-05-23 16:48:18,52.8496,17.7199,67.33,61,45,8.39
383,Pombas,CV,2022-05-23 16:48:19,17.1503,-25.0201,78.58,72,16,13.33
384,Sorland,NO,2022-05-23 16:48:19,67.667,12.6934,49.86,80,100,14.09
385,Makakilo City,US,2022-05-23 16:48:20,21.3469,-158.0858,74.19,71,0,9.22
386,Boden,SE,2022-05-23 16:48:20,65.8252,21.6886,50.0,47,7,7.31
387,Touros,BR,2022-05-23 16:48:20,-5.1989,-35.4608,80.89,81,46,12.59
388,Salalah,OM,2022-05-23 16:48:21,17.0151,54.0924,84.29,84,75,9.22
389,Kinshasa,CD,2022-05-23 16:45:14,-4.3246,15.3215,75.2,80,99,1.83
390,Libreville,GA,2022-05-23 16:48:21,0.3925,9.4537,79.23,76,100,2.71
391,Teknaf,BD,2022-05-23 16:48:22,20.8624,92.3058,79.77,81,96,1.99
392,Deputatskiy,RU,2022-05-23 16:48:22,69.3,139.9,21.83,93,45,3.38
393,Bedele,ET,2022-05-23 16:48:22,8.456,36.353,62.73,66,9,5.5
394,Susanville,US,2022-05-23 16:47:26,40.4163,-120.653,62.11,33,0,5.75
395,Severodvinsk,RU,2022-05-23 16:48:23,64.5635,39.8302,33.91,91,100,22.82
396,Dzidzantun,MX,2022-05-23 16:45:21,21.25,-89.05,97.75,29,11,5.48
397,Marawi,PH,2022-05-23 16:48:23,7.9986,124.2928,69.31,94,88,2.73
398,Adet,ET,2022-05-23 16:48:24,11.2644,37.4888,69.58,46,57,15.35
399,Kungurtug,RU,2022-05-23 16:48:24,50.5994,97.5228,53.01,71,64,2.89
400,Cascais,PT,2022-05-23 16:48:24,38.6979,-9.4215,71.51,61,20,17.27
401,Salvador,SV,2022-05-23 16:44:22,13.8333,-88.9167,77.04,75,99,3.58
402,Katete,UG,2022-05-23 16:48:25,-0.7818,29.7544,63.54,91,86,3.24
403,Porto Velho,BR,2022-05-23 16:48:25,-8.7619,-63.9039,89.65,51,0,3.44
404,Chapais,CA,2022-05-23 16:48:25,49.7834,-74.8492,47.98,42,56,5.17
405,Turukhansk,RU,2022-05-23 16:48:26,65.8167,87.9833,51.31,78,99,16.96
406,Dubai,AE,2022-05-23 16:48:24,25.2582,55.3047,91.69,58,0,8.05
407,Jackson,US,2022-05-23 16:48:26,42.4165,-122.8345,65.16,52,0,1.99
408,Ixtapa,MX,2022-05-23 16:48:27,20.7,-105.2,89.65,36,14,6.02
409,Poum,NC,2022-05-23 16:49:27,-20.2333,164.0167,75.99,76,100,18.81
410,Fortuna,US,2022-05-23 16:49:27,40.5982,-124.1573,56.93,85,100,9.22
411,Lingao,CN,2022-05-23 16:49:28,19.9103,109.6859,78.15,92,96,12.01
412,Port Blair,IN,2022-05-23 16:49:28,11.6667,92.75,82.44,89,75,12.66
413,Morros,BR,2022-05-23 16:49:29,-9.4467,-46.3003,89.64,33,1,6.73
414,Abonnema,NG,2022-05-23 16:49:29,4.7084,6.7931,76.1,90,100,5.99
415,Marienburg,PL,2022-05-23 16:49:29,54.0359,19.0266,64.89,72,53,8.05
416,Namatanai,PG,2022-05-23 16:49:30,-3.6667,152.4333,79.11,83,42,6.93
417,Cabedelo,BR,2022-05-23 16:45:49,-6.9811,-34.8339,75.87,86,99,15.9
418,Rawson,AR,2022-05-23 16:49:30,-43.3002,-65.1023,54.18,35,29,19.89
419,Ahuimanu,US,2022-05-23 16:49:30,21.4447,-157.8378,75.36,74,20,9.22
420,Nago,JP,2022-05-23 16:49:31,26.5881,127.9761,70.65,95,100,22.06
421,Zhuanghe,CN,2022-05-23 16:49:31,39.7008,122.9911,58.84,87,39,4.38
422,Tiksi,RU,2022-05-23 16:49:31,71.6872,128.8694,32.11,98,100,2.19
423,Sawakin,SD,2022-05-23 16:49:33,19.1059,37.3321,86.47,55,1,14.18
424,Los Alamos,US,2022-05-23 16:49:33,35.8881,-106.307,64.04,35,75,9.22
425,Menongue,AO,2022-05-23 16:49:34,-14.6585,17.691,61.18,38,0,3.96
426,Mount Pleasant,US,2022-05-23 16:49:34,32.7941,-79.8626,87.06,76,40,13.8
427,Houma,US,2022-05-23 16:46:42,29.5958,-90.7195,82.4,79,75,13.8
428,Riverton,US,2022-05-23 16:49:35,40.5219,-111.9391,59.16,43,0,11.5
429,Martapura,ID,2022-05-23 16:49:35,-3.4167,114.85,78.89,100,100,3.44
430,Bilibino,RU,2022-05-23 16:49:36,68.0546,166.4372,43.88,68,69,2.66
431,Bella Vista,US,2022-05-23 16:49:36,36.4295,-94.2316,61.05,71,100,12.66
432,Pimenta Bueno,BR,2022-05-23 16:49:36,-11.6725,-61.1936,87.31,50,38,1.97
433,Joshimath,IN,2022-05-23 16:49:37,30.5667,79.5667,60.21,74,88,4.0
434,Gamba,GA,2022-05-23 16:49:37,-2.65,10.0,74.89,80,100,6.96
435,Nouakchott,MR,2022-05-23 16:49:37,18.0858,-15.9785,69.73,82,21,17.47
436,Sakaraha,MG,2022-05-23 16:49:38,-22.9,44.5333,67.75,51,1,4.21
437,Nantucket,US,2022-05-23 16:48:24,41.2835,-70.0995,68.14,67,100,24.16
438,Praia Da Vitoria,PT,2022-05-23 16:49:38,38.7333,-27.0667,65.75,82,75,10.98
439,Semey,KZ,2022-05-23 16:49:38,50.4111,80.2275,60.42,30,94,9.1
440,Trinidad,BO,2022-05-23 16:49:39,-14.8333,-64.9,82.38,65,40,5.75
441,Hudiksvall,SE,2022-05-23 16:49:39,61.729,17.1036,56.05,41,65,10.51
442,Kolda,SN,2022-05-23 16:49:39,12.8833,-14.95,100.71,23,0,9.22
443,Hovd,MN,2022-05-23 16:49:40,48.0056,91.6419,66.2,39,100,3.0
444,Xichang,CN,2022-05-23 16:49:40,27.8964,102.2634,66.31,81,85,2.44
445,Marsh Harbour,BS,2022-05-23 16:49:40,26.5412,-77.0636,79.57,73,9,16.75
446,Chicama,PE,2022-05-23 16:49:41,-7.8447,-79.1469,61.34,63,32,8.97
447,Gimli,CA,2022-05-23 16:49:41,50.6336,-96.9907,59.02,38,50,10.36
448,Mancora,PE,2022-05-23 16:49:41,-4.1078,-81.0475,78.64,61,9,9.28
449,Sinazongwe,ZM,2022-05-23 16:49:42,-17.2614,27.4618,67.91,34,0,3.56
450,Ulladulla,AU,2022-05-23 16:49:42,-35.35,150.4667,46.76,79,83,4.45
451,Gimbi,ET,2022-05-23 16:49:42,9.1667,35.8333,63.3,70,56,3.65
452,Pangnirtung,CA,2022-05-23 16:50:43,66.1451,-65.7125,17.6,62,40,16.11
453,Juneau,US,2022-05-23 16:50:43,58.3019,-134.4197,49.21,93,100,11.5
454,Chokwe,MZ,2022-05-23 16:50:43,-24.5333,32.9833,61.0,95,59,6.35
455,Bacolod,PH,2022-05-23 16:50:44,10.6667,122.95,78.85,84,85,4.79
456,Vestmannaeyjar,IS,2022-05-23 16:50:44,63.4427,-20.2734,50.99,81,75,11.5
457,Warrenton,ZA,2022-05-23 16:50:44,-28.114,24.8475,57.94,48,33,5.77
458,Talara,PE,2022-05-23 16:50:45,-4.5772,-81.2719,74.16,64,0,25.32
459,Yeppoon,AU,2022-05-23 16:50:45,-23.1333,150.7333,65.98,91,100,13.8
460,Santiago Del Estero,AR,2022-05-23 16:50:46,-27.7951,-64.2615,78.46,32,4,13.33
461,Kaeo,NZ,2022-05-23 16:50:46,-35.1,173.7833,49.96,81,3,4.38
462,Gualaquiza,EC,2022-05-23 16:50:46,-3.4,-78.55,73.06,80,49,2.15
463,Goderich,CA,2022-05-23 16:50:47,43.7501,-81.7165,46.72,76,100,12.66
464,Punto Fijo,VE,2022-05-23 16:50:10,11.6956,-70.1996,84.9,62,65,26.04
465,Winooski,US,2022-05-23 16:50:47,44.4914,-73.1857,62.11,54,20,16.11
466,Samarai,PG,2022-05-23 16:50:48,-10.6167,150.6667,81.48,78,19,7.85
467,Balyaga,RU,2022-05-23 16:50:48,51.1507,108.921,42.91,67,16,3.09
468,Suhbaatar,MN,2022-05-23 16:50:48,50.2314,106.2078,49.66,66,63,5.12
469,Kapoeta,SS,2022-05-23 16:50:49,4.7717,33.5903,86.63,39,28,5.77
470,Portland,US,2022-05-23 16:50:49,45.5234,-122.6762,63.52,61,40,5.75
471,Cooma,AU,2022-05-23 16:50:50,-36.2333,149.1333,33.57,100,100,0.0
472,Alofi,NU,2022-05-23 16:50:50,-19.0595,-169.9187,71.49,94,40,3.44
473,Arlit,NE,2022-05-23 16:50:50,18.7369,7.3853,101.89,10,100,4.5
474,Conde,BR,2022-05-23 16:50:51,-7.2597,-34.9075,74.66,94,75,13.8
475,Aykhal,RU,2022-05-23 16:50:51,66.0,111.5,40.42,95,100,16.13
476,Haputale,LK,2022-05-23 16:50:51,6.7681,80.9595,63.75,81,65,5.32
477,Houston,US,2022-05-23 16:46:45,29.7633,-95.3633,82.49,73,20,11.5
478,Saravan,AM,2022-05-23 16:50:52,39.7196,45.6483,47.53,85,83,5.86
479,Hibbing,US,2022-05-23 16:50:52,47.4272,-92.9377,60.39,25,100,8.05
480,Paita,PE,2022-05-23 16:50:53,-5.0892,-81.1144,71.4,70,24,12.95
481,Sorsk,RU,2022-05-23 16:50:53,54.0033,90.2467,47.73,64,81,0.45
482,Fort-Shevchenko,KZ,2022-05-23 16:50:53,44.5086,50.263,65.21,60,98,18.3
483,Saint-Pierre,RE,2022-05-23 16:50:54,-21.3393,55.4781,73.08,83,0,13.8
484,Husavik,IS,2022-05-23 16:50:54,66.0449,-17.3389,40.35,83,85,3.83
485,Gbarnga,LR,2022-05-23 16:50:54,6.9956,-9.4722,74.57,94,94,1.7
486,Tiquisate,GT,2022-05-23 16:50:55,14.2833,-91.3667,84.0,67,67,3.24
487,Klyuchi,RU,2022-05-23 16:50:55,52.2667,79.1667,59.7,33,0,3.47
488,Kodaikanal,IN,2022-05-23 16:50:55,10.2333,77.4833,57.2,84,97,2.15
489,Berdigestyakh,RU,2022-05-23 16:50:56,62.0989,126.6992,45.97,70,85,2.21
490,Bathsheba,BB,2022-05-23 16:50:56,13.2167,-59.5167,88.41,58,20,17.27
491,Saint-Raymond,CA,2022-05-23 16:50:56,45.467,-73.6095,63.09,45,75,8.05
492,Antofagasta,CL,2022-05-23 16:49:07,-23.65,-70.4,58.28,68,39,6.38
493,Porto Santo,PT,2022-05-23 16:50:58,33.072,-16.3415,71.98,60,40,16.11
494,Manavalakurichi,IN,2022-05-23 16:50:58,8.1333,77.3,80.4,85,100,13.51
495,Lithakia,GR,2022-05-23 16:50:00,37.7167,20.8333,74.48,64,0,8.05
496,Verkhoyansk,RU,2022-05-23 16:50:59,67.5447,133.385,40.12,75,26,6.02
497,Korocha,RU,2022-05-23 16:51:59,50.8107,37.1953,56.12,72,91,6.51
498,Chunoyar,RU,2022-05-23 16:52:01,57.4467,97.3217,55.42,62,68,3.18
499,Maniitsoq,GL,2022-05-23 16:52:02,65.4167,-52.9,29.1,95,100,17.29
500,Viransehir,TR,2022-05-23 16:52:02,37.2353,39.7631,70.36,37,33,8.03
501,Sinnamary,GF,2022-05-23 16:52:03,5.3833,-52.95,80.58,80,44,4.85
502,Kalmunai,LK,2022-05-23 16:52:03,7.4167,81.8167,83.26,71,89,2.68
503,Nagai,JP,2022-05-23 16:52:03,38.1036,140.035,48.51,96,2,2.39
504,San Borja,BO,2022-05-23 16:52:04,-14.8167,-66.85,83.95,55,38,6.62
505,Morro Bay,US,2022-05-23 16:48:11,35.3658,-120.8499,75.51,67,1,5.99
506,Bandar-E Lengeh,IR,2022-05-23 16:52:04,26.5579,54.8807,95.11,34,0,4.61
507,Nanortalik,GL,2022-05-23 16:52:05,60.1432,-45.2371,35.73,79,94,14.16
508,Gallup,US,2022-05-23 16:47:18,35.5281,-108.7426,66.02,24,0,9.22
509,Pisco,PE,2022-05-23 16:52:05,-13.7,-76.2167,66.02,77,70,9.22
510,Henties Bay,NA,2022-05-23 16:52:05,-22.116,14.2845,63.09,63,50,6.13
511,Srednekolymsk,RU,2022-05-23 16:52:06,67.45,153.6833,50.97,72,100,10.96
512,Mondeville,FR,2022-05-23 16:52:06,49.175,-0.3224,59.74,77,100,11.5
513,Zhigansk,RU,2022-05-23 16:52:06,66.7697,123.3711,42.71,81,100,3.87
514,Ondjiva,AO,2022-05-23 16:52:07,-17.0667,15.7333,78.84,18,0,2.3
515,Antalaha,MG,2022-05-23 16:52:07,-14.9003,50.2788,71.51,79,5,8.52
516,Hong Gai,VN,2022-05-23 16:52:08,20.956,107.0946,82.31,91,82,6.73
517,Chenghai,CN,2022-05-23 16:52:08,23.4632,116.768,73.31,94,75,6.71
518,Noyabrsk,RU,2022-05-23 16:52:09,63.1994,75.4507,48.43,72,86,10.47
519,Horsham,GB,2022-05-23 16:52:09,51.064,-0.3272,65.25,71,20,10.36
520,Ahipara,NZ,2022-05-23 16:52:09,-35.1667,173.1667,53.82,69,66,5.08
521,Luanda,AO,2022-05-23 16:52:10,-8.8368,13.2343,73.63,79,100,10.74
522,Tabas,IR,2022-05-23 16:52:10,33.5959,56.9244,85.08,9,0,3.89
523,Nizwa,OM,2022-05-23 16:52:10,22.9333,57.5333,91.99,8,0,0.72
524,Creston,US,2022-05-23 16:52:12,41.0586,-94.3614,60.76,44,0,14.97
525,Lekoni,GA,2022-05-23 16:52:12,-1.5843,14.2591,75.15,73,100,5.73
526,Ronne,DK,2022-05-23 16:52:13,55.1009,14.7066,58.91,67,45,14.97
527,Dutse,NG,2022-05-23 16:52:13,11.7594,9.3392,98.65,15,59,4.74
528,Narsaq,GL,2022-05-23 16:52:13,60.9167,-46.05,36.07,79,90,4.43
529,Berbera,SO,2022-05-23 16:52:14,10.4396,45.0143,90.03,45,66,2.98
530,Sur,OM,2022-05-23 16:52:14,22.5667,59.5289,91.0,52,0,4.92
531,Bandarbeyla,SO,2022-05-23 16:52:14,9.4942,50.8122,81.07,83,67,28.14
532,Port-Cartier,CA,2022-05-23 16:52:15,50.0334,-66.8654,52.75,40,60,9.48
533,Macapa,BR,2022-05-23 16:52:15,0.0389,-51.0664,85.98,74,75,8.05
534,Blagoyevo,RU,2022-05-23 16:52:15,63.3667,47.9167,36.19,98,100,5.08
535,Zhezkazgan,KZ,2022-05-23 16:52:16,47.8043,67.7144,62.96,23,41,9.62
536,Gazanjyk,TM,2022-05-23 16:52:16,39.2446,55.5154,87.73,16,67,14.23
537,Chirongui,YT,2022-05-23 16:52:16,-12.9319,45.1483,82.33,71,100,3.42
538,Letka,RU,2022-05-23 16:52:17,59.6011,49.4232,35.44,91,100,2.13
539,Niono,ML,2022-05-23 16:52:17,14.2526,-5.993,97.32,28,36,11.16
540,Pochutla,MX,2022-05-23 16:52:18,15.7432,-96.4661,90.82,35,1,9.24
541,Bayji,IQ,2022-05-23 16:53:18,34.9311,43.487,79.3,26,1,4.16
542,North Platte,US,2022-05-23 16:53:05,41.1239,-100.7654,48.09,94,100,14.0
543,Saint-Georges,GD,2022-05-23 16:50:00,12.0564,-61.7485,83.88,74,40,20.71
544,Ucluelet,CA,2022-05-23 16:53:18,48.9329,-125.5528,53.1,86,70,1.99
545,Lakeway,US,2022-05-23 16:53:19,30.3638,-97.9796,79.77,74,100,7.0
546,Judenburg,AT,2022-05-23 16:53:19,47.1667,14.6667,70.52,56,75,4.61
